[{"type": "Feature", "geometry": {"type": "Point", "coordinates": [20.9815761, 105.7881746]}, "properties": {"Address": "3b Ng\u00f5 3 Ao Sen, P. M\u1ed9 Lao", "name": "Qu\u00e1n N\u01b0\u1edbc \u0110\u1ed9c C\u00f4 C\u1eedu \u0110i\u1ebfu"}}, {"type": "Feature", "geometry": {"type": "Point", "coordinates": [20.9815761, 105.7881746]}, "properties": {"Address": "3b Ng\u00f5 3 Ao Sen, P. M\u1ed9 Lao", "name": "Qu\u00e1n N\u01b0\u1edbc \u0110\u1ed9c C\u00f4 C\u1eedu \u0110i\u1ebfu"}}, {"type": "Feature", "geometry": {"type": "Point", "coordinates": [20.9815761, 105.7881746]}, "properties": {"Address": "3b Ng\u00f5 3 Ao Sen, P. M\u1ed9 Lao", "name": "Qu\u00e1n N\u01b0\u1edbc \u0110\u1ed9c C\u00f4 C\u1eedu \u0110i\u1ebfu"}}, {"type": "Feature", "geometry": {"type": "Point", "coordinates": [20.9815761, 105.7881746]}, "properties": {"Address": "3b Ng\u00f5 3 Ao Sen, P. M\u1ed9 Lao", "name": "Qu\u00e1n N\u01b0\u1edbc \u0110\u1ed9c C\u00f4 C\u1eedu \u0110i\u1ebfu"}}, {"type": "Feature", "geometry": {"type": "Point", "coordinates": [20.9815761, 105.7881746]}, "properties": {"Address": "3b Ng\u00f5 3 Ao Sen, P. M\u1ed9 Lao", "name": "Qu\u00e1n N\u01b0\u1edbc \u0110\u1ed9c C\u00f4 C\u1eedu \u0110i\u1ebfu"}}, {"type": "Feature", "geometry": {"type": "Point", "coordinates": [20.9815761, 105.7881746]}, "properties": {"Address": "3b Ng\u00f5 3 Ao Sen, P. M\u1ed9 Lao", "name": "Qu\u00e1n N\u01b0\u1edbc \u0110\u1ed9c C\u00f4 C\u1eedu \u0110i\u1ebfu"}}, {"type": "Feature", "geometry": {"type": "Point", "coordinates": [20.9815761, 105.7881746]}, "properties": {"Address": "3b Ng\u00f5 3 Ao Sen, P. M\u1ed9 Lao", "name": "Qu\u00e1n N\u01b0\u1edbc \u0110\u1ed9c C\u00f4 C\u1eedu \u0110i\u1ebfu"}}, {"type": "Feature", "geometry": {"type": "Point", "coordinates": [20.9815761, 105.7881746]}, "properties": {"Address": "3b Ng\u00f5 3 Ao Sen, P. M\u1ed9 Lao", "name": "Qu\u00e1n N\u01b0\u1edbc \u0110\u1ed9c C\u00f4 C\u1eedu \u0110i\u1ebfu"}}, {"type": "Feature", "geometry": {"type": "Point", "coordinates": [20.9815761, 105.7881746]}, "properties": {"Address": "3b Ng\u00f5 3 Ao Sen, P. M\u1ed9 Lao", "name": "Qu\u00e1n N\u01b0\u1edbc \u0110\u1ed9c C\u00f4 C\u1eedu \u0110i\u1ebfu"}}, {"type": "Feature", "geometry": {"type": "Point", "coordinates": [20.9815761, 105.7881746]}, "properties": {"Address": "3b Ng\u00f5 3 Ao Sen, P. M\u1ed9 Lao", "name": "Qu\u00e1n N\u01b0\u1edbc \u0110\u1ed9c C\u00f4 C\u1eedu \u0110i\u1ebfu"}}, {"type": "Feature", "geometry": {"type": "Point", "coordinates": [20.9815761, 105.7881746]}, "properties": {"Address": "3b Ng\u00f5 3 Ao Sen, P. M\u1ed9 Lao", "name": "Qu\u00e1n N\u01b0\u1edbc \u0110\u1ed9c C\u00f4 C\u1eedu \u0110i\u1ebfu"}}, {"type": "Feature", "geometry": {"type": "Point", "coordinates": [20.9815761, 105.7881746]}, "properties": {"Address": "3b Ng\u00f5 3 Ao Sen, P. M\u1ed9 Lao", "name": "Qu\u00e1n N\u01b0\u1edbc \u0110\u1ed9c C\u00f4 C\u1eedu \u0110i\u1ebfu"}}, {"type": "Feature", "geometry": {"type": "Point", "coordinates": [20.9815761, 105.7881746]}, "properties": {"Address": "3b Ng\u00f5 3 Ao Sen, P. M\u1ed9 Lao", "name": "Qu\u00e1n N\u01b0\u1edbc \u0110\u1ed9c C\u00f4 C\u1eedu \u0110i\u1ebfu"}}, {"type": "Feature", "geometry": {"type": "Point", "coordinates": [20.9815761, 105.7881746]}, "properties": {"Address": "3b Ng\u00f5 3 Ao Sen, P. M\u1ed9 Lao", "name": "Qu\u00e1n N\u01b0\u1edbc \u0110\u1ed9c C\u00f4 C\u1eedu \u0110i\u1ebfu"}}, {"type": "Feature", "geometry": {"type": "Point", "coordinates": [20.9815761, 105.7881746]}, "properties": {"Address": "3b Ng\u00f5 3 Ao Sen, P. M\u1ed9 Lao", "name": "Qu\u00e1n N\u01b0\u1edbc \u0110\u1ed9c C\u00f4 C\u1eedu \u0110i\u1ebfu"}}, {"type": "Feature", "geometry": {"type": "Point", "coordinates": [20.9815761, 105.7881746]}, "properties": {"Address": "3b Ng\u00f5 3 Ao Sen, P. M\u1ed9 Lao", "name": "Qu\u00e1n N\u01b0\u1edbc \u0110\u1ed9c C\u00f4 C\u1eedu \u0110i\u1ebfu"}}, {"type": "Feature", "geometry": {"type": "Point", "coordinates": [20.9815761, 105.7881746]}, "properties": {"Address": "3b Ng\u00f5 3 Ao Sen, P. M\u1ed9 Lao", "name": "Qu\u00e1n N\u01b0\u1edbc \u0110\u1ed9c C\u00f4 C\u1eedu \u0110i\u1ebfu"}}, {"type": "Feature", "geometry": {"type": "Point", "coordinates": [20.9815761, 105.7881746]}, "properties": {"Address": "3b Ng\u00f5 3 Ao Sen, P. M\u1ed9 Lao", "name": "Qu\u00e1n N\u01b0\u1edbc \u0110\u1ed9c C\u00f4 C\u1eedu \u0110i\u1ebfu"}}, {"type": "Feature", "geometry": {"type": "Point", "coordinates": [20.9815761, 105.7881746]}, "properties": {"Address": "3b Ng\u00f5 3 Ao Sen, P. M\u1ed9 Lao", "name": "Qu\u00e1n N\u01b0\u1edbc \u0110\u1ed9c C\u00f4 C\u1eedu \u0110i\u1ebfu"}}, {"type": "Feature", "geometry": {"type": "Point", "coordinates": [20.9815761, 105.7881746]}, "properties": {"Address": "3b Ng\u00f5 3 Ao Sen, P. M\u1ed9 Lao", "name": "Qu\u00e1n N\u01b0\u1edbc \u0110\u1ed9c C\u00f4 C\u1eedu \u0110i\u1ebfu"}}, {"type": "Feature", "geometry": {"type": "Point", "coordinates": [20.9815761, 105.7881746]}, "properties": {"Address": "3b Ng\u00f5 3 Ao Sen, P. M\u1ed9 Lao", "name": "Qu\u00e1n N\u01b0\u1edbc \u0110\u1ed9c C\u00f4 C\u1eedu \u0110i\u1ebfu"}}, {"type": "Feature", "geometry": {"type": "Point", "coordinates": [20.9815761, 105.7881746]}, "properties": {"Address": "3b Ng\u00f5 3 Ao Sen, P. M\u1ed9 Lao", "name": "Qu\u00e1n N\u01b0\u1edbc \u0110\u1ed9c C\u00f4 C\u1eedu \u0110i\u1ebfu"}}, {"type": "Feature", "geometry": {"type": "Point", "coordinates": [20.9815761, 105.7881746]}, "properties": {"Address": "3b Ng\u00f5 3 Ao Sen, P. M\u1ed9 Lao", "name": "Qu\u00e1n N\u01b0\u1edbc \u0110\u1ed9c C\u00f4 C\u1eedu \u0110i\u1ebfu"}}, {"type": "Feature", "geometry": {"type": "Point", "coordinates": [20.9815761, 105.7881746]}, "properties": {"Address": "3b Ng\u00f5 3 Ao Sen, P. M\u1ed9 Lao", "name": "Qu\u00e1n N\u01b0\u1edbc \u0110\u1ed9c C\u00f4 C\u1eedu \u0110i\u1ebfu"}}, {"type": "Feature", "geometry": {"type": "Point", "coordinates": [20.9815761, 105.7881746]}, "properties": {"Address": "3b Ng\u00f5 3 Ao Sen, P. M\u1ed9 Lao", "name": "Qu\u00e1n N\u01b0\u1edbc \u0110\u1ed9c C\u00f4 C\u1eedu \u0110i\u1ebfu"}}, {"type": "Feature", "geometry": {"type": "Point", "coordinates": [20.9815761, 105.7881746]}, "properties": {"Address": "3b Ng\u00f5 3 Ao Sen, P. M\u1ed9 Lao", "name": "Qu\u00e1n N\u01b0\u1edbc \u0110\u1ed9c C\u00f4 C\u1eedu \u0110i\u1ebfu"}}, {"type": "Feature", "geometry": {"type": "Point", "coordinates": [20.9815761, 105.7881746]}, "properties": {"Address": "3b Ng\u00f5 3 Ao Sen, P. M\u1ed9 Lao", "name": "Qu\u00e1n N\u01b0\u1edbc \u0110\u1ed9c C\u00f4 C\u1eedu \u0110i\u1ebfu"}}, {"type": "Feature", "geometry": {"type": "Point", "coordinates": [20.9815761, 105.7881746]}, "properties": {"Address": "3b Ng\u00f5 3 Ao Sen, P. M\u1ed9 Lao", "name": "Qu\u00e1n N\u01b0\u1edbc \u0110\u1ed9c C\u00f4 C\u1eedu \u0110i\u1ebfu"}}, {"type": "Feature", "geometry": {"type": "Point", "coordinates": [20.9815761, 105.7881746]}, "properties": {"Address": "3b Ng\u00f5 3 Ao Sen, P. M\u1ed9 Lao", "name": "Qu\u00e1n N\u01b0\u1edbc \u0110\u1ed9c C\u00f4 C\u1eedu \u0110i\u1ebfu"}}, {"type": "Feature", "geometry": {"type": "Point", "coordinates": [20.9815761, 105.7881746]}, "properties": {"Address": "3b Ng\u00f5 3 Ao Sen, P. M\u1ed9 Lao", "name": "Qu\u00e1n N\u01b0\u1edbc \u0110\u1ed9c C\u00f4 C\u1eedu \u0110i\u1ebfu"}}, {"type": "Feature", "geometry": {"type": "Point", "coordinates": [20.9815761, 105.7881746]}, "properties": {"Address": "3b Ng\u00f5 3 Ao Sen, P. M\u1ed9 Lao", "name": "Qu\u00e1n N\u01b0\u1edbc \u0110\u1ed9c C\u00f4 C\u1eedu \u0110i\u1ebfu"}}, {"type": "Feature", "geometry": {"type": "Point", "coordinates": [20.9815761, 105.7881746]}, "properties": {"Address": "3b Ng\u00f5 3 Ao Sen, P. M\u1ed9 Lao", "name": "Qu\u00e1n N\u01b0\u1edbc \u0110\u1ed9c C\u00f4 C\u1eedu \u0110i\u1ebfu"}}, {"type": "Feature", "geometry": {"type": "Point", "coordinates": [20.9815761, 105.7881746]}, "properties": {"Address": "3b Ng\u00f5 3 Ao Sen, P. M\u1ed9 Lao", "name": "Qu\u00e1n N\u01b0\u1edbc \u0110\u1ed9c C\u00f4 C\u1eedu \u0110i\u1ebfu"}}, {"type": "Feature", "geometry": {"type": "Point", "coordinates": [20.9815761, 105.7881746]}, "properties": {"Address": "3b Ng\u00f5 3 Ao Sen, P. M\u1ed9 Lao", "name": "Qu\u00e1n N\u01b0\u1edbc \u0110\u1ed9c C\u00f4 C\u1eedu \u0110i\u1ebfu"}}, {"type": "Feature", "geometry": {"type": "Point", "coordinates": [20.9815761, 105.7881746]}, "properties": {"Address": "3b Ng\u00f5 3 Ao Sen, P. M\u1ed9 Lao", "name": "Qu\u00e1n N\u01b0\u1edbc \u0110\u1ed9c C\u00f4 C\u1eedu \u0110i\u1ebfu"}}, {"type": "Feature", "geometry": {"type": "Point", "coordinates": [20.9815761, 105.7881746]}, "properties": {"Address": "3b Ng\u00f5 3 Ao Sen, P. M\u1ed9 Lao", "name": "Qu\u00e1n N\u01b0\u1edbc \u0110\u1ed9c C\u00f4 C\u1eedu \u0110i\u1ebfu"}}, {"type": "Feature", "geometry": {"type": "Point", "coordinates": [20.9815761, 105.7881746]}, "properties": {"Address": "3b Ng\u00f5 3 Ao Sen, P. M\u1ed9 Lao", "name": "Qu\u00e1n N\u01b0\u1edbc \u0110\u1ed9c C\u00f4 C\u1eedu \u0110i\u1ebfu"}}, {"type": "Feature", "geometry": {"type": "Point", "coordinates": [20.9815761, 105.7881746]}, "properties": {"Address": "3b Ng\u00f5 3 Ao Sen, P. M\u1ed9 Lao", "name": "Qu\u00e1n N\u01b0\u1edbc \u0110\u1ed9c C\u00f4 C\u1eedu \u0110i\u1ebfu"}}, {"type": "Feature", "geometry": {"type": "Point", "coordinates": [20.9815761, 105.7881746]}, "properties": {"Address": "3b Ng\u00f5 3 Ao Sen, P. M\u1ed9 Lao", "name": "Qu\u00e1n N\u01b0\u1edbc \u0110\u1ed9c C\u00f4 C\u1eedu \u0110i\u1ebfu"}}, {"type": "Feature", "geometry": {"type": "Point", "coordinates": [20.9815761, 105.7881746]}, "properties": {"Address": "3b Ng\u00f5 3 Ao Sen, P. M\u1ed9 Lao", "name": "Qu\u00e1n N\u01b0\u1edbc \u0110\u1ed9c C\u00f4 C\u1eedu \u0110i\u1ebfu"}}, {"type": "Feature", "geometry": {"type": "Point", "coordinates": [20.9815761, 105.7881746]}, "properties": {"Address": "3b Ng\u00f5 3 Ao Sen, P. M\u1ed9 Lao", "name": "Qu\u00e1n N\u01b0\u1edbc \u0110\u1ed9c C\u00f4 C\u1eedu \u0110i\u1ebfu"}}, {"type": "Feature", "geometry": {"type": "Point", "coordinates": [20.9815761, 105.7881746]}, "properties": {"Address": "3b Ng\u00f5 3 Ao Sen, P. M\u1ed9 Lao", "name": "Qu\u00e1n N\u01b0\u1edbc \u0110\u1ed9c C\u00f4 C\u1eedu \u0110i\u1ebfu"}}, {"type": "Feature", "geometry": {"type": "Point", "coordinates": [20.9815761, 105.7881746]}, "properties": {"Address": "3b Ng\u00f5 3 Ao Sen, P. M\u1ed9 Lao", "name": "Qu\u00e1n N\u01b0\u1edbc \u0110\u1ed9c C\u00f4 C\u1eedu \u0110i\u1ebfu"}}, {"type": "Feature", "geometry": {"type": "Point", "coordinates": [20.9815761, 105.7881746]}, "properties": {"Address": "3b Ng\u00f5 3 Ao Sen, P. M\u1ed9 Lao", "name": "Qu\u00e1n N\u01b0\u1edbc \u0110\u1ed9c C\u00f4 C\u1eedu \u0110i\u1ebfu"}}, {"type": "Feature", "geometry": {"type": "Point", "coordinates": [20.9815761, 105.7881746]}, "properties": {"Address": "3b Ng\u00f5 3 Ao Sen, P. M\u1ed9 Lao", "name": "Qu\u00e1n N\u01b0\u1edbc \u0110\u1ed9c C\u00f4 C\u1eedu \u0110i\u1ebfu"}}, {"type": "Feature", "geometry": {"type": "Point", "coordinates": [20.9815761, 105.7881746]}, "properties": {"Address": "3b Ng\u00f5 3 Ao Sen, P. M\u1ed9 Lao", "name": "Qu\u00e1n N\u01b0\u1edbc \u0110\u1ed9c C\u00f4 C\u1eedu \u0110i\u1ebfu"}}, {"type": "Feature", "geometry": {"type": "Point", "coordinates": [20.9815761, 105.7881746]}, "properties": {"Address": "3b Ng\u00f5 3 Ao Sen, P. M\u1ed9 Lao", "name": "Qu\u00e1n N\u01b0\u1edbc \u0110\u1ed9c C\u00f4 C\u1eedu \u0110i\u1ebfu"}}, {"type": "Feature", "geometry": {"type": "Point", "coordinates": [20.9815761, 105.7881746]}, "properties": {"Address": "3b Ng\u00f5 3 Ao Sen, P. M\u1ed9 Lao", "name": "Qu\u00e1n N\u01b0\u1edbc \u0110\u1ed9c C\u00f4 C\u1eedu \u0110i\u1ebfu"}}, {"type": "Feature", "geometry": {"type": "Point", "coordinates": [20.9815761, 105.7881746]}, "properties": {"Address": "3b Ng\u00f5 3 Ao Sen, P. M\u1ed9 Lao", "name": "Qu\u00e1n N\u01b0\u1edbc \u0110\u1ed9c C\u00f4 C\u1eedu \u0110i\u1ebfu"}}, {"type": "Feature", "geometry": {"type": "Point", "coordinates": [20.9815761, 105.7881746]}, "properties": {"Address": "3b Ng\u00f5 3 Ao Sen, P. M\u1ed9 Lao", "name": "Qu\u00e1n N\u01b0\u1edbc \u0110\u1ed9c C\u00f4 C\u1eedu \u0110i\u1ebfu"}}]